<?xml version="1.0" encoding="UTF-8"?>
<article lang="">
  <para>$GPGGA,073933.773,3527.998,N,12922.500,E,1,12,1.0,0.0,M,0.0,M,,*64</para>
  <para>$GPGSA,A,3,01,02,03,04,05,06,07,08,09,10,11,12,1.0,1.0,1.0*30</para>
  <para>$GPRMC,073933.773,A,3527.998,N,12922.500,E,36511.7,117.0,050820,000.0,W*7F</para>
  <para>$GPGGA,073934.773,3522.626,N,12933.047,E,1,12,1.0,0.0,M,0.0,M,,*6A</para>
  <para>$GPGSA,A,3,01,02,03,04,05,06,07,08,09,10,11,12,1.0,1.0,1.0*30</para>
  <para>$GPRMC,073934.773,A,3522.626,N,12933.047,E,76792.6,085.7,050820,000.0,W*70</para>
  <para>$GPGGA,073935.773,3524.597,N,12959.084,E,1,12,1.0,0.0,M,0.0,M,,*67</para>
  <para>$GPGSA,A,3,01,02,03,04,05,06,07,08,09,10,11,12,1.0,1.0,1.0*30</para>
  <para>$GPRMC,073935.773,A,3524.597,N,12959.084,E,82590.2,090.7,050820,000.0,W*76</para>
  <para>$GPGGA,073936.773,3524.239,N,13027.209,E,1,12,1.0,0.0,M,0.0,M,,*61</para>
  <para>$GPGSA,A,3,01,02,03,04,05,06,07,08,09,10,11,12,1.0,1.0,1.0*30</para>
  <para>$GPRMC,073936.773,A,3524.239,N,13027.209,E,49701.0,058.3,050820,000.0,W*7F</para>
  <para>$GPGGA,073937.773,3532.559,N,13040.723,E,1,12,1.0,0.0,M,0.0,M,,*6A</para>
  <para>$GPGSA,A,3,01,02,03,04,05,06,07,08,09,10,11,12,1.0,1.0,1.0*30</para>
  <para>$GPRMC,073937.773,A,3532.559,N,13040.723,E,129853.9,093.5,050820,000.0,W*43</para>
  <para>$GPGGA,073938.773,3529.877,N,13124.888,E,1,12,1.0,0.0,M,0.0,M,,*63</para>
  <para>$GPGSA,A,3,01,02,03,04,05,06,07,08,09,10,11,12,1.0,1.0,1.0*30</para>
  <para>$GPRMC,073938.773,A,3529.877,N,13124.888,E,039.1,042.6,050820,000.0,W*73</para>
  <para>$GPGGA,073939.773,3529.885,N,13124.896,E,1,12,1.0,0.0,M,0.0,M,,*60</para>
  <para>$GPGSA,A,3,01,02,03,04,05,06,07,08,09,10,11,12,1.0,1.0,1.0*30</para>
  <para>$GPRMC,073939.773,A,3529.885,N,13124.896,E,039.1,042.6,050820,000.0,W*70</para>
  <para>$GPGGA,073940.773,3529.894,N,13124.904,E,1,12,1.0,0.0,M,0.0,M,,*64</para>
  <para>$GPGSA,A,3,01,02,03,04,05,06,07,08,09,10,11,12,1.0,1.0,1.0*30</para>
  <para>$GPRMC,073940.773,A,3529.894,N,13124.904,E,039.1,042.6,050820,000.0,W*74</para>
  <para>$GPGGA,073941.773,3529.903,N,13124.912,E,1,12,1.0,0.0,M,0.0,M,,*6D</para>
  <para>$GPGSA,A,3,01,02,03,04,05,06,07,08,09,10,11,12,1.0,1.0,1.0*30</para>
  <para>$GPRMC,073941.773,A,3529.903,N,13124.912,E,039.1,042.6,050820,000.0,W*7D</para>
  <para>$GPGGA,073942.773,3529.912,N,13124.920,E,1,12,1.0,0.0,M,0.0,M,,*6F</para>
  <para>$GPGSA,A,3,01,02,03,04,05,06,07,08,09,10,11,12,1.0,1.0,1.0*30</para>
  <para>$GPRMC,073942.773,A,3529.912,N,13124.920,E,039.1,042.6,050820,000.0,W*7F</para>
  <para>$GPGGA,073943.773,3529.920,N,13124.928,E,1,12,1.0,0.0,M,0.0,M,,*67</para>
  <para>$GPGSA,A,3,01,02,03,04,05,06,07,08,09,10,11,12,1.0,1.0,1.0*30</para>
  <para>$GPRMC,073943.773,A,3529.920,N,13124.928,E,039.1,042.6,050820,000.0,W*77</para>
  <para>$GPGGA,073944.773,3529.929,N,13124.936,E,1,12,1.0,0.0,M,0.0,M,,*66</para>
  <para>$GPGSA,A,3,01,02,03,04,05,06,07,08,09,10,11,12,1.0,1.0,1.0*30</para>
  <para>$GPRMC,073944.773,A,3529.929,N,13124.936,E,039.1,042.6,050820,000.0,W*76</para>
  <para>$GPGGA,073945.773,3529.938,N,13124.944,E,1,12,1.0,0.0,M,0.0,M,,*62</para>
  <para>$GPGSA,A,3,01,02,03,04,05,06,07,08,09,10,11,12,1.0,1.0,1.0*30</para>
  <para>$GPRMC,073945.773,A,3529.938,N,13124.944,E,039.1,042.6,050820,000.0,W*72</para>
  <para>$GPGGA,073946.773,3529.946,N,13124.952,E,1,12,1.0,0.0,M,0.0,M,,*6F</para>
  <para>$GPGSA,A,3,01,02,03,04,05,06,07,08,09,10,11,12,1.0,1.0,1.0*30</para>
  <para>$GPRMC,073946.773,A,3529.946,N,13124.952,E,039.1,042.6,050820,000.0,W*7F</para>
  <para>$GPGGA,073947.773,3529.955,N,13124.960,E,1,12,1.0,0.0,M,0.0,M,,*6D</para>
  <para>$GPGSA,A,3,01,02,03,04,05,06,07,08,09,10,11,12,1.0,1.0,1.0*30</para>
  <para>$GPRMC,073947.773,A,3529.955,N,13124.960,E,039.1,042.6,050820,000.0,W*7D</para>
  <para>$GPGGA,073948.773,3529.964,N,13124.968,E,1,12,1.0,0.0,M,0.0,M,,*68</para>
  <para>$GPGSA,A,3,01,02,03,04,05,06,07,08,09,10,11,12,1.0,1.0,1.0*30</para>
  <para>$GPRMC,073948.773,A,3529.964,N,13124.968,E,039.1,042.6,050820,000.0,W*78</para>
  <para>$GPGGA,073949.773,3529.972,N,13124.976,E,1,12,1.0,0.0,M,0.0,M,,*61</para>
  <para>$GPGSA,A,3,01,02,03,04,05,06,07,08,09,10,11,12,1.0,1.0,1.0*30</para>
  <para>$GPRMC,073949.773,A,3529.972,N,13124.976,E,039.1,042.6,050820,000.0,W*71</para>
  <para>$GPGGA,073950.773,3529.981,N,13124.984,E,1,12,1.0,0.0,M,0.0,M,,*68</para>
  <para>$GPGSA,A,3,01,02,03,04,05,06,07,08,09,10,11,12,1.0,1.0,1.0*30</para>
  <para>$GPRMC,073950.773,A,3529.981,N,13124.984,E,039.1,042.6,050820,000.0,W*78</para>
  <para>$GPGGA,073951.773,3529.990,N,13124.992,E,1,12,1.0,0.0,M,0.0,M,,*6E</para>
  <para>$GPGSA,A,3,01,02,03,04,05,06,07,08,09,10,11,12,1.0,1.0,1.0*30</para>
  <para>$GPRMC,073951.773,A,3529.990,N,13124.992,E,039.1,042.6,050820,000.0,W*7E</para>
  <para>$GPGGA,073952.773,3529.998,N,13125.000,E,1,12,1.0,0.0,M,0.0,M,,*66</para>
  <para>$GPGSA,A,3,01,02,03,04,05,06,07,08,09,10,11,12,1.0,1.0,1.0*30</para>
  <para>$GPRMC,073952.773,A,3529.998,N,13125.000,E,039.1,042.6,050820,000.0,W*76</para>
  <para>$GPGGA,073953.773,3530.007,N,13125.008,E,1,12,1.0,0.0,M,0.0,M,,*68</para>
  <para>$GPGSA,A,3,01,02,03,04,05,06,07,08,09,10,11,12,1.0,1.0,1.0*30</para>
  <para>$GPRMC,073953.773,A,3530.007,N,13125.008,E,039.1,042.6,050820,000.0,W*78</para>
  <para>$GPGGA,073954.773,3530.016,N,13125.016,E,1,12,1.0,0.0,M,0.0,M,,*60</para>
  <para>$GPGSA,A,3,01,02,03,04,05,06,07,08,09,10,11,12,1.0,1.0,1.0*30</para>
  <para>$GPRMC,073954.773,A,3530.016,N,13125.016,E,039.1,042.6,050820,000.0,W*70</para>
  <para>$GPGGA,073955.773,3530.024,N,13125.024,E,1,12,1.0,0.0,M,0.0,M,,*61</para>
  <para>$GPGSA,A,3,01,02,03,04,05,06,07,08,09,10,11,12,1.0,1.0,1.0*30</para>
  <para>$GPRMC,073955.773,A,3530.024,N,13125.024,E,039.1,042.6,050820,000.0,W*71</para>
  <para>$GPGGA,073956.773,3530.033,N,13125.032,E,1,12,1.0,0.0,M,0.0,M,,*63</para>
  <para>$GPGSA,A,3,01,02,03,04,05,06,07,08,09,10,11,12,1.0,1.0,1.0*30</para>
  <para>$GPRMC,073956.773,A,3530.033,N,13125.032,E,039.1,042.6,050820,000.0,W*73</para>
  <para>$GPGGA,073957.773,3530.042,N,13125.040,E,1,12,1.0,0.0,M,0.0,M,,*61</para>
  <para>$GPGSA,A,3,01,02,03,04,05,06,07,08,09,10,11,12,1.0,1.0,1.0*30</para>
  <para>$GPRMC,073957.773,A,3530.042,N,13125.040,E,039.1,042.6,050820,000.0,W*71</para>
  <para>$GPGGA,073958.773,3530.050,N,13125.048,E,1,12,1.0,0.0,M,0.0,M,,*65</para>
  <para>$GPGSA,A,3,01,02,03,04,05,06,07,08,09,10,11,12,1.0,1.0,1.0*30</para>
  <para>$GPRMC,073958.773,A,3530.050,N,13125.048,E,039.1,042.6,050820,000.0,W*75</para>
  <para>$GPGGA,073959.773,3530.059,N,13125.056,E,1,12,1.0,0.0,M,0.0,M,,*62</para>
  <para>$GPGSA,A,3,01,02,03,04,05,06,07,08,09,10,11,12,1.0,1.0,1.0*30</para>
  <para>$GPRMC,073959.773,A,3530.059,N,13125.056,E,039.1,042.6,050820,000.0,W*72</para>
  <para>$GPGGA,074000.773,3530.068,N,13125.064,E,1,12,1.0,0.0,M,0.0,M,,*63</para>
  <para>$GPGSA,A,3,01,02,03,04,05,06,07,08,09,10,11,12,1.0,1.0,1.0*30</para>
  <para>$GPRMC,074000.773,A,3530.068,N,13125.064,E,039.1,042.6,050820,000.0,W*73</para>
  <para>$GPGGA,074001.773,3530.077,N,13125.072,E,1,12,1.0,0.0,M,0.0,M,,*6B</para>
  <para>$GPGSA,A,3,01,02,03,04,05,06,07,08,09,10,11,12,1.0,1.0,1.0*30</para>
  <para>$GPRMC,074001.773,A,3530.077,N,13125.072,E,039.1,042.6,050820,000.0,W*7B</para>
  <para>$GPGGA,074002.773,3530.085,N,13125.080,E,1,12,1.0,0.0,M,0.0,M,,*68</para>
  <para>$GPGSA,A,3,01,02,03,04,05,06,07,08,09,10,11,12,1.0,1.0,1.0*30</para>
  <para>$GPRMC,074002.773,A,3530.085,N,13125.080,E,039.1,042.6,050820,000.0,W*78</para>
  <para>$GPGGA,074003.773,3530.094,N,13125.088,E,1,12,1.0,0.0,M,0.0,M,,*61</para>
  <para>$GPGSA,A,3,01,02,03,04,05,06,07,08,09,10,11,12,1.0,1.0,1.0*30</para>
  <para>$GPRMC,074003.773,A,3530.094,N,13125.088,E,039.1,042.6,050820,000.0,W*71</para>
  <para>$GPGGA,074004.773,3530.103,N,13125.096,E,1,12,1.0,0.0,M,0.0,M,,*66</para>
  <para>$GPGSA,A,3,01,02,03,04,05,06,07,08,09,10,11,12,1.0,1.0,1.0*30</para>
  <para>$GPRMC,074004.773,A,3530.103,N,13125.096,E,039.1,042.6,050820,000.0,W*76</para>
  <para>$GPGGA,074005.773,3530.111,N,13125.104,E,1,12,1.0,0.0,M,0.0,M,,*6E</para>
  <para>$GPGSA,A,3,01,02,03,04,05,06,07,08,09,10,11,12,1.0,1.0,1.0*30</para>
  <para>$GPRMC,074005.773,A,3530.111,N,13125.104,E,039.1,042.6,050820,000.0,W*7E</para>
  <para>$GPGGA,074006.773,3530.120,N,13125.112,E,1,12,1.0,0.0,M,0.0,M,,*68</para>
  <para>$GPGSA,A,3,01,02,03,04,05,06,07,08,09,10,11,12,1.0,1.0,1.0*30</para>
  <para>$GPRMC,074006.773,A,3530.120,N,13125.112,E,039.1,042.6,050820,000.0,W*78</para>
  <para>$GPGGA,074007.773,3530.129,N,13125.120,E,1,12,1.0,0.0,M,0.0,M,,*61</para>
  <para>$GPGSA,A,3,01,02,03,04,05,06,07,08,09,10,11,12,1.0,1.0,1.0*30</para>
  <para>$GPRMC,074007.773,A,3530.129,N,13125.120,E,039.1,042.6,050820,000.0,W*71</para>
  <para>$GPGGA,074008.773,3530.137,N,13125.128,E,1,12,1.0,0.0,M,0.0,M,,*69</para>
  <para>$GPGSA,A,3,01,02,03,04,05,06,07,08,09,10,11,12,1.0,1.0,1.0*30</para>
  <para>$GPRMC,074008.773,A,3530.137,N,13125.128,E,039.1,042.6,050820,000.0,W*79</para>
  <para>$GPGGA,074009.773,3530.146,N,13125.136,E,1,12,1.0,0.0,M,0.0,M,,*61</para>
  <para>$GPGSA,A,3,01,02,03,04,05,06,07,08,09,10,11,12,1.0,1.0,1.0*30</para>
  <para>$GPRMC,074009.773,A,3530.146,N,13125.136,E,039.1,042.6,050820,000.0,W*71</para>
  <para>$GPGGA,074010.773,3530.155,N,13125.144,E,1,12,1.0,0.0,M,0.0,M,,*6E</para>
  <para>$GPGSA,A,3,01,02,03,04,05,06,07,08,09,10,11,12,1.0,1.0,1.0*30</para>
  <para>$GPRMC,074010.773,A,3530.155,N,13125.144,E,039.1,042.6,050820,000.0,W*7E</para>
  <para>$GPGGA,074011.773,3530.163,N,13125.152,E,1,12,1.0,0.0,M,0.0,M,,*6D</para>
  <para>$GPGSA,A,3,01,02,03,04,05,06,07,08,09,10,11,12,1.0,1.0,1.0*30</para>
  <para>$GPRMC,074011.773,A,3530.163,N,13125.152,E,039.1,042.6,050820,000.0,W*7D</para>
  <para>$GPGGA,074012.773,3530.172,N,13125.160,E,1,12,1.0,0.0,M,0.0,M,,*6F</para>
  <para>$GPGSA,A,3,01,02,03,04,05,06,07,08,09,10,11,12,1.0,1.0,1.0*30</para>
  <para>$GPRMC,074012.773,A,3530.172,N,13125.160,E,039.1,042.6,050820,000.0,W*7F</para>
  <para>$GPGGA,074013.773,3530.181,N,13125.168,E,1,12,1.0,0.0,M,0.0,M,,*6A</para>
  <para>$GPGSA,A,3,01,02,03,04,05,06,07,08,09,10,11,12,1.0,1.0,1.0*30</para>
  <para>$GPRMC,074013.773,A,3530.181,N,13125.168,E,039.1,042.6,050820,000.0,W*7A</para>
  <para>$GPGGA,074014.773,3530.189,N,13125.176,E,1,12,1.0,0.0,M,0.0,M,,*6A</para>
  <para>$GPGSA,A,3,01,02,03,04,05,06,07,08,09,10,11,12,1.0,1.0,1.0*30</para>
  <para>$GPRMC,074014.773,A,3530.189,N,13125.176,E,039.1,042.6,050820,000.0,W*7A</para>
  <para>$GPGGA,074015.773,3530.198,N,13125.184,E,1,12,1.0,0.0,M,0.0,M,,*66</para>
  <para>$GPGSA,A,3,01,02,03,04,05,06,07,08,09,10,11,12,1.0,1.0,1.0*30</para>
  <para>$GPRMC,074015.773,A,3530.198,N,13125.184,E,039.1,042.6,050820,000.0,W*76</para>
  <para>$GPGGA,074016.773,3530.207,N,13125.192,E,1,12,1.0,0.0,M,0.0,M,,*67</para>
  <para>$GPGSA,A,3,01,02,03,04,05,06,07,08,09,10,11,12,1.0,1.0,1.0*30</para>
  <para>$GPRMC,074016.773,A,3530.207,N,13125.192,E,039.1,042.6,050820,000.0,W*77</para>
  <para>$GPGGA,074017.773,3530.215,N,13125.200,E,1,12,1.0,0.0,M,0.0,M,,*6D</para>
  <para>$GPGSA,A,3,01,02,03,04,05,06,07,08,09,10,11,12,1.0,1.0,1.0*30</para>
  <para>$GPRMC,074017.773,A,3530.215,N,13125.200,E,039.1,042.6,050820,000.0,W*7D</para>
  <para>$GPGGA,074018.773,3530.224,N,13125.208,E,1,12,1.0,0.0,M,0.0,M,,*68</para>
  <para>$GPGSA,A,3,01,02,03,04,05,06,07,08,09,10,11,12,1.0,1.0,1.0*30</para>
  <para>$GPRMC,074018.773,A,3530.224,N,13125.208,E,039.1,042.6,050820,000.0,W*78</para>
  <para>$GPGGA,074019.773,3530.233,N,13125.216,E,1,12,1.0,0.0,M,0.0,M,,*60</para>
  <para>$GPGSA,A,3,01,02,03,04,05,06,07,08,09,10,11,12,1.0,1.0,1.0*30</para>
  <para>$GPRMC,074019.773,A,3530.233,N,13125.216,E,039.1,042.6,050820,000.0,W*70</para>
  <para>$GPGGA,074020.773,3530.241,N,13125.224,E,1,12,1.0,0.0,M,0.0,M,,*6E</para>
  <para>$GPGSA,A,3,01,02,03,04,05,06,07,08,09,10,11,12,1.0,1.0,1.0*30</para>
  <para>$GPRMC,074020.773,A,3530.241,N,13125.224,E,039.1,042.6,050820,000.0,W*7E</para>
  <para>$GPGGA,074021.773,3530.250,N,13125.232,E,1,12,1.0,0.0,M,0.0,M,,*68</para>
  <para>$GPGSA,A,3,01,02,03,04,05,06,07,08,09,10,11,12,1.0,1.0,1.0*30</para>
  <para>$GPRMC,074021.773,A,3530.250,N,13125.232,E,039.1,042.6,050820,000.0,W*78</para>
  <para>$GPGGA,074022.773,3530.259,N,13125.240,E,1,12,1.0,0.0,M,0.0,M,,*67</para>
  <para>$GPGSA,A,3,01,02,03,04,05,06,07,08,09,10,11,12,1.0,1.0,1.0*30</para>
  <para>$GPRMC,074022.773,A,3530.259,N,13125.240,E,039.1,042.6,050820,000.0,W*77</para>
  <para>$GPGGA,074023.773,3530.268,N,13125.248,E,1,12,1.0,0.0,M,0.0,M,,*6C</para>
  <para>$GPGSA,A,3,01,02,03,04,05,06,07,08,09,10,11,12,1.0,1.0,1.0*30</para>
  <para>$GPRMC,074023.773,A,3530.268,N,13125.248,E,039.1,042.6,050820,000.0,W*7C</para>
  <para>$GPGGA,074024.773,3530.276,N,13125.256,E,1,12,1.0,0.0,M,0.0,M,,*6B</para>
  <para>$GPGSA,A,3,01,02,03,04,05,06,07,08,09,10,11,12,1.0,1.0,1.0*30</para>
  <para>$GPRMC,074024.773,A,3530.276,N,13125.256,E,039.1,042.6,050820,000.0,W*7B</para>
  <para>$GPGGA,074025.773,3530.285,N,13125.264,E,1,12,1.0,0.0,M,0.0,M,,*67</para>
  <para>$GPGSA,A,3,01,02,03,04,05,06,07,08,09,10,11,12,1.0,1.0,1.0*30</para>
  <para>$GPRMC,074025.773,A,3530.285,N,13125.264,E,039.1,042.6,050820,000.0,W*77</para>
  <para>$GPGGA,074026.773,3530.294,N,13125.272,E,1,12,1.0,0.0,M,0.0,M,,*63</para>
  <para>$GPGSA,A,3,01,02,03,04,05,06,07,08,09,10,11,12,1.0,1.0,1.0*30</para>
  <para>$GPRMC,074026.773,A,3530.294,N,13125.272,E,039.1,042.6,050820,000.0,W*73</para>
  <para>$GPGGA,074027.773,3530.302,N,13125.280,E,1,12,1.0,0.0,M,0.0,M,,*61</para>
  <para>$GPGSA,A,3,01,02,03,04,05,06,07,08,09,10,11,12,1.0,1.0,1.0*30</para>
  <para>$GPRMC,074027.773,A,3530.302,N,13125.280,E,039.1,042.6,050820,000.0,W*71</para>
  <para>$GPGGA,074028.773,3530.311,N,13125.288,E,1,12,1.0,0.0,M,0.0,M,,*64</para>
  <para>$GPGSA,A,3,01,02,03,04,05,06,07,08,09,10,11,12,1.0,1.0,1.0*30</para>
  <para>$GPRMC,074028.773,A,3530.311,N,13125.288,E,039.1,042.6,050820,000.0,W*74</para>
  <para>$GPGGA,074029.773,3530.320,N,13125.296,E,1,12,1.0,0.0,M,0.0,M,,*68</para>
  <para>$GPGSA,A,3,01,02,03,04,05,06,07,08,09,10,11,12,1.0,1.0,1.0*30</para>
  <para>$GPRMC,074029.773,A,3530.320,N,13125.296,E,039.1,042.6,050820,000.0,W*78</para>
  <para>$GPGGA,074030.773,3530.328,N,13125.304,E,1,12,1.0,0.0,M,0.0,M,,*62</para>
  <para>$GPGSA,A,3,01,02,03,04,05,06,07,08,09,10,11,12,1.0,1.0,1.0*30</para>
  <para>$GPRMC,074030.773,A,3530.328,N,13125.304,E,039.1,042.6,050820,000.0,W*72</para>
  <para>$GPGGA,074031.773,3530.337,N,13125.312,E,1,12,1.0,0.0,M,0.0,M,,*6A</para>
  <para>$GPGSA,A,3,01,02,03,04,05,06,07,08,09,10,11,12,1.0,1.0,1.0*30</para>
  <para>$GPRMC,074031.773,A,3530.337,N,13125.312,E,039.1,042.6,050820,000.0,W*7A</para>
  <para>$GPGGA,074032.773,3530.346,N,13125.320,E,1,12,1.0,0.0,M,0.0,M,,*6E</para>
  <para>$GPGSA,A,3,01,02,03,04,05,06,07,08,09,10,11,12,1.0,1.0,1.0*30</para>
  <para>$GPRMC,074032.773,A,3530.346,N,13125.320,E,039.1,042.6,050820,000.0,W*7E</para>
  <para>$GPGGA,074033.773,3530.354,N,13125.328,E,1,12,1.0,0.0,M,0.0,M,,*64</para>
  <para>$GPGSA,A,3,01,02,03,04,05,06,07,08,09,10,11,12,1.0,1.0,1.0*30</para>
  <para>$GPRMC,074033.773,A,3530.354,N,13125.328,E,039.1,042.6,050820,000.0,W*74</para>
  <para>$GPGGA,074034.773,3530.363,N,13125.336,E,1,12,1.0,0.0,M,0.0,M,,*68</para>
  <para>$GPGSA,A,3,01,02,03,04,05,06,07,08,09,10,11,12,1.0,1.0,1.0*30</para>
  <para>$GPRMC,074034.773,A,3530.363,N,13125.336,E,039.1,042.6,050820,000.0,W*78</para>
  <para>$GPGGA,074035.773,3530.372,N,13125.344,E,1,12,1.0,0.0,M,0.0,M,,*6C</para>
  <para>$GPGSA,A,3,01,02,03,04,05,06,07,08,09,10,11,12,1.0,1.0,1.0*30</para>
  <para>$GPRMC,074035.773,A,3530.372,N,13125.344,E,039.1,042.6,050820,000.0,W*7C</para>
  <para>$GPGGA,074036.773,3530.380,N,13125.352,E,1,12,1.0,0.0,M,0.0,M,,*65</para>
  <para>$GPGSA,A,3,01,02,03,04,05,06,07,08,09,10,11,12,1.0,1.0,1.0*30</para>
  <para>$GPRMC,074036.773,A,3530.380,N,13125.352,E,039.1,042.6,050820,000.0,W*75</para>
  <para>$GPGGA,074037.773,3530.389,N,13125.360,E,1,12,1.0,0.0,M,0.0,M,,*6C</para>
  <para>$GPGSA,A,3,01,02,03,04,05,06,07,08,09,10,11,12,1.0,1.0,1.0*30</para>
  <para>$GPRMC,074037.773,A,3530.389,N,13125.360,E,039.1,042.6,050820,000.0,W*7C</para>
  <para>$GPGGA,074038.773,3530.398,N,13125.368,E,1,12,1.0,0.0,M,0.0,M,,*6B</para>
  <para>$GPGSA,A,3,01,02,03,04,05,06,07,08,09,10,11,12,1.0,1.0,1.0*30</para>
  <para>$GPRMC,074038.773,A,3530.398,N,13125.368,E,039.1,042.6,050820,000.0,W*7B</para>
  <para>$GPGGA,074039.773,3530.406,N,13125.377,E,1,12,1.0,0.0,M,0.0,M,,*64</para>
  <para>$GPGSA,A,3,01,02,03,04,05,06,07,08,09,10,11,12,1.0,1.0,1.0*30</para>
  <para>$GPRMC,074039.773,A,3530.406,N,13125.377,E,039.1,042.6,050820,000.0,W*74</para>
  <para>$GPGGA,074040.773,3530.415,N,13125.385,E,1,12,1.0,0.0,M,0.0,M,,*65</para>
  <para>$GPGSA,A,3,01,02,03,04,05,06,07,08,09,10,11,12,1.0,1.0,1.0*30</para>
  <para>$GPRMC,074040.773,A,3530.415,N,13125.385,E,039.1,042.6,050820,000.0,W*75</para>
  <para>$GPGGA,074041.773,3530.424,N,13125.393,E,1,12,1.0,0.0,M,0.0,M,,*61</para>
  <para>$GPGSA,A,3,01,02,03,04,05,06,07,08,09,10,11,12,1.0,1.0,1.0*30</para>
  <para>$GPRMC,074041.773,A,3530.424,N,13125.393,E,039.1,042.6,050820,000.0,W*71</para>
  <para>$GPGGA,074042.773,3530.432,N,13125.401,E,1,12,1.0,0.0,M,0.0,M,,*69</para>
  <para>$GPGSA,A,3,01,02,03,04,05,06,07,08,09,10,11,12,1.0,1.0,1.0*30</para>
  <para>$GPRMC,074042.773,A,3530.432,N,13125.401,E,039.1,042.6,050820,000.0,W*79</para>
  <para>$GPGGA,074043.773,3530.441,N,13125.409,E,1,12,1.0,0.0,M,0.0,M,,*64</para>
  <para>$GPGSA,A,3,01,02,03,04,05,06,07,08,09,10,11,12,1.0,1.0,1.0*30</para>
  <para>$GPRMC,074043.773,A,3530.441,N,13125.409,E,039.1,042.6,050820,000.0,W*74</para>
  <para>$GPGGA,074044.773,3530.450,N,13125.417,E,1,12,1.0,0.0,M,0.0,M,,*6C</para>
  <para>$GPGSA,A,3,01,02,03,04,05,06,07,08,09,10,11,12,1.0,1.0,1.0*30</para>
  <para>$GPRMC,074044.773,A,3530.450,N,13125.417,E,039.1,042.6,050820,000.0,W*7C</para>
  <para>$GPGGA,074045.773,3530.459,N,13125.425,E,1,12,1.0,0.0,M,0.0,M,,*65</para>
  <para>$GPGSA,A,3,01,02,03,04,05,06,07,08,09,10,11,12,1.0,1.0,1.0*30</para>
  <para>$GPRMC,074045.773,A,3530.459,N,13125.425,E,039.1,042.6,050820,000.0,W*75</para>
  <para>$GPGGA,074046.773,3530.467,N,13125.433,E,1,12,1.0,0.0,M,0.0,M,,*6C</para>
  <para>$GPGSA,A,3,01,02,03,04,05,06,07,08,09,10,11,12,1.0,1.0,1.0*30</para>
  <para>$GPRMC,074046.773,A,3530.467,N,13125.433,E,039.1,042.6,050820,000.0,W*7C</para>
  <para>$GPGGA,074047.773,3530.476,N,13125.441,E,1,12,1.0,0.0,M,0.0,M,,*68</para>
  <para>$GPGSA,A,3,01,02,03,04,05,06,07,08,09,10,11,12,1.0,1.0,1.0*30</para>
  <para>$GPRMC,074047.773,A,3530.476,N,13125.441,E,039.1,042.6,050820,000.0,W*78</para>
  <para>$GPGGA,074048.773,3530.485,N,13125.449,E,1,12,1.0,0.0,M,0.0,M,,*63</para>
  <para>$GPGSA,A,3,01,02,03,04,05,06,07,08,09,10,11,12,1.0,1.0,1.0*30</para>
  <para>$GPRMC,074048.773,A,3530.485,N,13125.449,E,039.1,042.6,050820,000.0,W*73</para>
  <para>$GPGGA,074049.773,3530.493,N,13125.457,E,1,12,1.0,0.0,M,0.0,M,,*6A</para>
  <para>$GPGSA,A,3,01,02,03,04,05,06,07,08,09,10,11,12,1.0,1.0,1.0*30</para>
  <para>$GPRMC,074049.773,A,3530.493,N,13125.457,E,039.1,042.6,050820,000.0,W*7A</para>
  <para>$GPGGA,074050.773,3530.502,N,13125.465,E,1,12,1.0,0.0,M,0.0,M,,*6A</para>
  <para>$GPGSA,A,3,01,02,03,04,05,06,07,08,09,10,11,12,1.0,1.0,1.0*30</para>
  <para>$GPRMC,074050.773,A,3530.502,N,13125.465,E,039.1,042.6,050820,000.0,W*7A</para>
  <para>$GPGGA,074051.773,3530.511,N,13125.473,E,1,12,1.0,0.0,M,0.0,M,,*6E</para>
  <para>$GPGSA,A,3,01,02,03,04,05,06,07,08,09,10,11,12,1.0,1.0,1.0*30</para>
  <para>$GPRMC,074051.773,A,3530.511,N,13125.473,E,039.1,042.6,050820,000.0,W*7E</para>
  <para>$GPGGA,074052.773,3530.519,N,13125.481,E,1,12,1.0,0.0,M,0.0,M,,*68</para>
  <para>$GPGSA,A,3,01,02,03,04,05,06,07,08,09,10,11,12,1.0,1.0,1.0*30</para>
  <para>$GPRMC,074052.773,A,3530.519,N,13125.481,E,039.1,042.6,050820,000.0,W*78</para>
  <para>$GPGGA,074053.773,3530.528,N,13125.489,E,1,12,1.0,0.0,M,0.0,M,,*63</para>
  <para>$GPGSA,A,3,01,02,03,04,05,06,07,08,09,10,11,12,1.0,1.0,1.0*30</para>
  <para>$GPRMC,074053.773,A,3530.528,N,13125.489,E,039.1,042.6,050820,000.0,W*73</para>
  <para>$GPGGA,074054.773,3530.537,N,13125.497,E,1,12,1.0,0.0,M,0.0,M,,*65</para>
  <para>$GPGSA,A,3,01,02,03,04,05,06,07,08,09,10,11,12,1.0,1.0,1.0*30</para>
  <para>$GPRMC,074054.773,A,3530.537,N,13125.497,E,039.1,042.6,050820,000.0,W*75</para>
  <para>$GPGGA,074055.773,3530.545,N,13125.505,E,1,12,1.0,0.0,M,0.0,M,,*6B</para>
  <para>$GPGSA,A,3,01,02,03,04,05,06,07,08,09,10,11,12,1.0,1.0,1.0*30</para>
  <para>$GPRMC,074055.773,A,3530.545,N,13125.505,E,039.1,042.6,050820,000.0,W*7B</para>
  <para>$GPGGA,074056.773,3530.554,N,13125.513,E,1,12,1.0,0.0,M,0.0,M,,*6F</para>
  <para>$GPGSA,A,3,01,02,03,04,05,06,07,08,09,10,11,12,1.0,1.0,1.0*30</para>
  <para>$GPRMC,074056.773,A,3530.554,N,13125.513,E,039.1,042.6,050820,000.0,W*7F</para>
  <para>$GPGGA,074057.773,3530.563,N,13125.521,E,1,12,1.0,0.0,M,0.0,M,,*6B</para>
  <para>$GPGSA,A,3,01,02,03,04,05,06,07,08,09,10,11,12,1.0,1.0,1.0*30</para>
  <para>$GPRMC,074057.773,A,3530.563,N,13125.521,E,039.1,042.6,050820,000.0,W*7B</para>
  <para>$GPGGA,074058.773,3530.571,N,13125.529,E,1,12,1.0,0.0,M,0.0,M,,*6F</para>
  <para>$GPGSA,A,3,01,02,03,04,05,06,07,08,09,10,11,12,1.0,1.0,1.0*30</para>
  <para>$GPRMC,074058.773,A,3530.571,N,13125.529,E,039.1,042.6,050820,000.0,W*7F</para>
  <para>$GPGGA,074059.773,3530.580,N,13125.537,E,1,12,1.0,0.0,M,0.0,M,,*6F</para>
  <para>$GPGSA,A,3,01,02,03,04,05,06,07,08,09,10,11,12,1.0,1.0,1.0*30</para>
  <para>$GPRMC,074059.773,A,3530.580,N,13125.537,E,039.1,042.6,050820,000.0,W*7F</para>
  <para>$GPGGA,074100.773,3530.589,N,13125.545,E,1,12,1.0,0.0,M,0.0,M,,*6E</para>
  <para>$GPGSA,A,3,01,02,03,04,05,06,07,08,09,10,11,12,1.0,1.0,1.0*30</para>
  <para>$GPRMC,074100.773,A,3530.589,N,13125.545,E,039.1,042.6,050820,000.0,W*7E</para>
  <para>$GPGGA,074101.773,3530.597,N,13125.553,E,1,12,1.0,0.0,M,0.0,M,,*67</para>
  <para>$GPGSA,A,3,01,02,03,04,05,06,07,08,09,10,11,12,1.0,1.0,1.0*30</para>
  <para>$GPRMC,074101.773,A,3530.597,N,13125.553,E,039.1,042.6,050820,000.0,W*77</para>
  <para>$GPGGA,074102.773,3530.606,N,13125.561,E,1,12,1.0,0.0,M,0.0,M,,*6E</para>
  <para>$GPGSA,A,3,01,02,03,04,05,06,07,08,09,10,11,12,1.0,1.0,1.0*30</para>
  <para>$GPRMC,074102.773,A,3530.606,N,13125.561,E,039.1,042.6,050820,000.0,W*7E</para>
  <para>$GPGGA,074103.773,3530.615,N,13125.569,E,1,12,1.0,0.0,M,0.0,M,,*65</para>
  <para>$GPGSA,A,3,01,02,03,04,05,06,07,08,09,10,11,12,1.0,1.0,1.0*30</para>
  <para>$GPRMC,074103.773,A,3530.615,N,13125.569,E,039.1,042.6,050820,000.0,W*75</para>
  <para>$GPGGA,074104.773,3530.623,N,13125.577,E,1,12,1.0,0.0,M,0.0,M,,*68</para>
  <para>$GPGSA,A,3,01,02,03,04,05,06,07,08,09,10,11,12,1.0,1.0,1.0*30</para>
  <para>$GPRMC,074104.773,A,3530.623,N,13125.577,E,039.1,042.6,050820,000.0,W*78</para>
  <para>$GPGGA,074105.773,3530.632,N,13125.585,E,1,12,1.0,0.0,M,0.0,M,,*64</para>
  <para>$GPGSA,A,3,01,02,03,04,05,06,07,08,09,10,11,12,1.0,1.0,1.0*30</para>
  <para>$GPRMC,074105.773,A,3530.632,N,13125.585,E,039.1,042.6,050820,000.0,W*74</para>
  <para>$GPGGA,074106.773,3530.641,N,13125.593,E,1,12,1.0,0.0,M,0.0,M,,*64</para>
  <para>$GPGSA,A,3,01,02,03,04,05,06,07,08,09,10,11,12,1.0,1.0,1.0*30</para>
  <para>$GPRMC,074106.773,A,3530.641,N,13125.593,E,039.1,042.6,050820,000.0,W*74</para>
  <para>$GPGGA,074107.773,3530.650,N,13125.601,E,1,12,1.0,0.0,M,0.0,M,,*6D</para>
  <para>$GPGSA,A,3,01,02,03,04,05,06,07,08,09,10,11,12,1.0,1.0,1.0*30</para>
  <para>$GPRMC,074107.773,A,3530.650,N,13125.601,E,039.1,042.6,050820,000.0,W*7D</para>
  <para>$GPGGA,074108.773,3530.658,N,13125.609,E,1,12,1.0,0.0,M,0.0,M,,*62</para>
  <para>$GPGSA,A,3,01,02,03,04,05,06,07,08,09,10,11,12,1.0,1.0,1.0*30</para>
  <para>$GPRMC,074108.773,A,3530.658,N,13125.609,E,039.1,042.6,050820,000.0,W*72</para>
  <para>$GPGGA,074109.773,3530.667,N,13125.617,E,1,12,1.0,0.0,M,0.0,M,,*60</para>
  <para>$GPGSA,A,3,01,02,03,04,05,06,07,08,09,10,11,12,1.0,1.0,1.0*30</para>
  <para>$GPRMC,074109.773,A,3530.667,N,13125.617,E,039.1,042.6,050820,000.0,W*70</para>
  <para>$GPGGA,074110.773,3530.676,N,13125.625,E,1,12,1.0,0.0,M,0.0,M,,*69</para>
  <para>$GPGSA,A,3,01,02,03,04,05,06,07,08,09,10,11,12,1.0,1.0,1.0*30</para>
  <para>$GPRMC,074110.773,A,3530.676,N,13125.625,E,039.1,042.6,050820,000.0,W*79</para>
  <para>$GPGGA,074111.773,3530.684,N,13125.633,E,1,12,1.0,0.0,M,0.0,M,,*62</para>
  <para>$GPGSA,A,3,01,02,03,04,05,06,07,08,09,10,11,12,1.0,1.0,1.0*30</para>
  <para>$GPRMC,074111.773,A,3530.684,N,13125.633,E,039.1,042.6,050820,000.0,W*72</para>
  <para>$GPGGA,074112.773,3530.693,N,13125.641,E,1,12,1.0,0.0,M,0.0,M,,*62</para>
  <para>$GPGSA,A,3,01,02,03,04,05,06,07,08,09,10,11,12,1.0,1.0,1.0*30</para>
  <para>$GPRMC,074112.773,A,3530.693,N,13125.641,E,039.1,042.6,050820,000.0,W*72</para>
  <para>$GPGGA,074113.773,3530.702,N,13125.649,E,1,12,1.0,0.0,M,0.0,M,,*62</para>
  <para>$GPGSA,A,3,01,02,03,04,05,06,07,08,09,10,11,12,1.0,1.0,1.0*30</para>
  <para>$GPRMC,074113.773,A,3530.702,N,13125.649,E,039.1,042.6,050820,000.0,W*72</para>
  <para>$GPGGA,074114.773,3530.710,N,13125.657,E,1,12,1.0,0.0,M,0.0,M,,*69</para>
  <para>$GPGSA,A,3,01,02,03,04,05,06,07,08,09,10,11,12,1.0,1.0,1.0*30</para>
  <para>$GPRMC,074114.773,A,3530.710,N,13125.657,E,039.1,042.6,050820,000.0,W*79</para>
  <para>$GPGGA,074115.773,3530.719,N,13125.665,E,1,12,1.0,0.0,M,0.0,M,,*60</para>
  <para>$GPGSA,A,3,01,02,03,04,05,06,07,08,09,10,11,12,1.0,1.0,1.0*30</para>
  <para>$GPRMC,074115.773,A,3530.719,N,13125.665,E,039.1,042.6,050820,000.0,W*70</para>
  <para>$GPGGA,074116.773,3530.728,N,13125.673,E,1,12,1.0,0.0,M,0.0,M,,*66</para>
  <para>$GPGSA,A,3,01,02,03,04,05,06,07,08,09,10,11,12,1.0,1.0,1.0*30</para>
  <para>$GPRMC,074116.773,A,3530.728,N,13125.673,E,039.1,042.6,050820,000.0,W*76</para>
  <para>$GPGGA,074117.773,3530.736,N,13125.681,E,1,12,1.0,0.0,M,0.0,M,,*65</para>
  <para>$GPGSA,A,3,01,02,03,04,05,06,07,08,09,10,11,12,1.0,1.0,1.0*30</para>
  <para>$GPRMC,074117.773,A,3530.736,N,13125.681,E,039.1,042.6,050820,000.0,W*75</para>
  <para>$GPGGA,074118.773,3530.745,N,13125.689,E,1,12,1.0,0.0,M,0.0,M,,*66</para>
  <para>$GPGSA,A,3,01,02,03,04,05,06,07,08,09,10,11,12,1.0,1.0,1.0*30</para>
  <para>$GPRMC,074118.773,A,3530.745,N,13125.689,E,039.1,042.6,050820,000.0,W*76</para>
  <para>$GPGGA,074119.773,3530.754,N,13125.697,E,1,12,1.0,0.0,M,0.0,M,,*68</para>
  <para>$GPGSA,A,3,01,02,03,04,05,06,07,08,09,10,11,12,1.0,1.0,1.0*30</para>
  <para>$GPRMC,074119.773,A,3530.754,N,13125.697,E,039.1,042.6,050820,000.0,W*78</para>
  <para>$GPGGA,074120.773,3530.762,N,13125.705,E,1,12,1.0,0.0,M,0.0,M,,*6D</para>
  <para>$GPGSA,A,3,01,02,03,04,05,06,07,08,09,10,11,12,1.0,1.0,1.0*30</para>
  <para>$GPRMC,074120.773,A,3530.762,N,13125.705,E,039.1,042.6,050820,000.0,W*7D</para>
  <para>$GPGGA,074121.773,3530.771,N,13125.713,E,1,12,1.0,0.0,M,0.0,M,,*69</para>
  <para>$GPGSA,A,3,01,02,03,04,05,06,07,08,09,10,11,12,1.0,1.0,1.0*30</para>
  <para>$GPRMC,074121.773,A,3530.771,N,13125.713,E,039.1,042.6,050820,000.0,W*79</para>
  <para>$GPGGA,074122.773,3530.780,N,13125.721,E,1,12,1.0,0.0,M,0.0,M,,*65</para>
  <para>$GPGSA,A,3,01,02,03,04,05,06,07,08,09,10,11,12,1.0,1.0,1.0*30</para>
  <para>$GPRMC,074122.773,A,3530.780,N,13125.721,E,039.1,042.6,050820,000.0,W*75</para>
  <para>$GPGGA,074123.773,3530.788,N,13125.729,E,1,12,1.0,0.0,M,0.0,M,,*64</para>
  <para>$GPGSA,A,3,01,02,03,04,05,06,07,08,09,10,11,12,1.0,1.0,1.0*30</para>
  <para>$GPRMC,074123.773,A,3530.788,N,13125.729,E,039.1,042.6,050820,000.0,W*74</para>
  <para>$GPGGA,074124.773,3530.797,N,13125.737,E,1,12,1.0,0.0,M,0.0,M,,*62</para>
  <para>$GPGSA,A,3,01,02,03,04,05,06,07,08,09,10,11,12,1.0,1.0,1.0*30</para>
  <para>$GPRMC,074124.773,A,3530.797,N,13125.737,E,039.1,042.6,050820,000.0,W*72</para>
  <para>$GPGGA,074125.773,3530.806,N,13125.745,E,1,12,1.0,0.0,M,0.0,M,,*61</para>
  <para>$GPGSA,A,3,01,02,03,04,05,06,07,08,09,10,11,12,1.0,1.0,1.0*30</para>
  <para>$GPRMC,074125.773,A,3530.806,N,13125.745,E,039.1,042.6,050820,000.0,W*71</para>
  <para>$GPGGA,074126.773,3530.814,N,13125.753,E,1,12,1.0,0.0,M,0.0,M,,*66</para>
  <para>$GPGSA,A,3,01,02,03,04,05,06,07,08,09,10,11,12,1.0,1.0,1.0*30</para>
  <para>$GPRMC,074126.773,A,3530.814,N,13125.753,E,039.1,042.6,050820,000.0,W*76</para>
  <para>$GPGGA,074127.773,3530.823,N,13125.761,E,1,12,1.0,0.0,M,0.0,M,,*62</para>
  <para>$GPGSA,A,3,01,02,03,04,05,06,07,08,09,10,11,12,1.0,1.0,1.0*30</para>
  <para>$GPRMC,074127.773,A,3530.823,N,13125.761,E,039.1,042.6,050820,000.0,W*72</para>
  <para>$GPGGA,074128.773,3530.832,N,13125.769,E,1,12,1.0,0.0,M,0.0,M,,*65</para>
  <para>$GPGSA,A,3,01,02,03,04,05,06,07,08,09,10,11,12,1.0,1.0,1.0*30</para>
  <para>$GPRMC,074128.773,A,3530.832,N,13125.769,E,039.1,042.6,050820,000.0,W*75</para>
  <para>$GPGGA,074129.773,3530.841,N,13125.777,E,1,12,1.0,0.0,M,0.0,M,,*6F</para>
  <para>$GPGSA,A,3,01,02,03,04,05,06,07,08,09,10,11,12,1.0,1.0,1.0*30</para>
  <para>$GPRMC,074129.773,A,3530.841,N,13125.777,E,039.1,042.6,050820,000.0,W*7F</para>
  <para>$GPGGA,074130.773,3530.849,N,13125.785,E,1,12,1.0,0.0,M,0.0,M,,*62</para>
  <para>$GPGSA,A,3,01,02,03,04,05,06,07,08,09,10,11,12,1.0,1.0,1.0*30</para>
  <para>$GPRMC,074130.773,A,3530.849,N,13125.785,E,039.1,042.6,050820,000.0,W*72</para>
  <para>$GPGGA,074131.773,3530.858,N,13125.793,E,1,12,1.0,0.0,M,0.0,M,,*64</para>
  <para>$GPGSA,A,3,01,02,03,04,05,06,07,08,09,10,11,12,1.0,1.0,1.0*30</para>
  <para>$GPRMC,074131.773,A,3530.858,N,13125.793,E,039.1,042.6,050820,000.0,W*74</para>
  <para>$GPGGA,074132.773,3530.867,N,13125.801,E,1,12,1.0,0.0,M,0.0,M,,*6F</para>
  <para>$GPGSA,A,3,01,02,03,04,05,06,07,08,09,10,11,12,1.0,1.0,1.0*30</para>
  <para>$GPRMC,074132.773,A,3530.867,N,13125.801,E,039.1,042.6,050820,000.0,W*7F</para>
  <para>$GPGGA,074133.773,3530.875,N,13125.809,E,1,12,1.0,0.0,M,0.0,M,,*65</para>
  <para>$GPGSA,A,3,01,02,03,04,05,06,07,08,09,10,11,12,1.0,1.0,1.0*30</para>
  <para>$GPRMC,074133.773,A,3530.875,N,13125.809,E,039.1,042.6,050820,000.0,W*75</para>
  <para>$GPGGA,074134.773,3530.884,N,13125.817,E,1,12,1.0,0.0,M,0.0,M,,*63</para>
  <para>$GPGSA,A,3,01,02,03,04,05,06,07,08,09,10,11,12,1.0,1.0,1.0*30</para>
  <para>$GPRMC,074134.773,A,3530.884,N,13125.817,E,039.1,042.6,050820,000.0,W*73</para>
  <para>$GPGGA,074135.773,3530.893,N,13125.825,E,1,12,1.0,0.0,M,0.0,M,,*65</para>
  <para>$GPGSA,A,3,01,02,03,04,05,06,07,08,09,10,11,12,1.0,1.0,1.0*30</para>
  <para>$GPRMC,074135.773,A,3530.893,N,13125.825,E,039.1,042.6,050820,000.0,W*75</para>
  <para>$GPGGA,074136.773,3530.901,N,13125.833,E,1,12,1.0,0.0,M,0.0,M,,*6B</para>
  <para>$GPGSA,A,3,01,02,03,04,05,06,07,08,09,10,11,12,1.0,1.0,1.0*30</para>
  <para>$GPRMC,074136.773,A,3530.901,N,13125.833,E,039.1,042.6,050820,000.0,W*7B</para>
  <para>$GPGGA,074137.773,3530.910,N,13125.841,E,1,12,1.0,0.0,M,0.0,M,,*6F</para>
  <para>$GPGSA,A,3,01,02,03,04,05,06,07,08,09,10,11,12,1.0,1.0,1.0*30</para>
  <para>$GPRMC,074137.773,A,3530.910,N,13125.841,E,039.1,042.6,050820,000.0,W*7F</para>
  <para>$GPGGA,074138.773,3530.919,N,13125.849,E,1,12,1.0,0.0,M,0.0,M,,*61</para>
  <para>$GPGSA,A,3,01,02,03,04,05,06,07,08,09,10,11,12,1.0,1.0,1.0*30</para>
  <para>$GPRMC,074138.773,A,3530.919,N,13125.849,E,039.1,042.6,050820,000.0,W*71</para>
  <para>$GPGGA,074139.773,3530.927,N,13125.857,E,1,12,1.0,0.0,M,0.0,M,,*62</para>
  <para>$GPGSA,A,3,01,02,03,04,05,06,07,08,09,10,11,12,1.0,1.0,1.0*30</para>
  <para>$GPRMC,074139.773,A,3530.927,N,13125.857,E,039.1,042.6,050820,000.0,W*72</para>
  <para>$GPGGA,074140.773,3530.936,N,13125.865,E,1,12,1.0,0.0,M,0.0,M,,*6D</para>
  <para>$GPGSA,A,3,01,02,03,04,05,06,07,08,09,10,11,12,1.0,1.0,1.0*30</para>
  <para>$GPRMC,074140.773,A,3530.936,N,13125.865,E,039.1,042.6,050820,000.0,W*7D</para>
  <para>$GPGGA,074141.773,3530.945,N,13125.873,E,1,12,1.0,0.0,M,0.0,M,,*6F</para>
  <para>$GPGSA,A,3,01,02,03,04,05,06,07,08,09,10,11,12,1.0,1.0,1.0*30</para>
  <para>$GPRMC,074141.773,A,3530.945,N,13125.873,E,039.1,042.6,050820,000.0,W*7F</para>
  <para>$GPGGA,074142.773,3530.953,N,13125.881,E,1,12,1.0,0.0,M,0.0,M,,*66</para>
  <para>$GPGSA,A,3,01,02,03,04,05,06,07,08,09,10,11,12,1.0,1.0,1.0*30</para>
  <para>$GPRMC,074142.773,A,3530.953,N,13125.881,E,039.1,042.6,050820,000.0,W*76</para>
  <para>$GPGGA,074143.773,3530.962,N,13125.889,E,1,12,1.0,0.0,M,0.0,M,,*6D</para>
  <para>$GPGSA,A,3,01,02,03,04,05,06,07,08,09,10,11,12,1.0,1.0,1.0*30</para>
  <para>$GPRMC,074143.773,A,3530.962,N,13125.889,E,039.1,042.6,050820,000.0,W*7D</para>
  <para>$GPGGA,074144.773,3530.971,N,13125.897,E,1,12,1.0,0.0,M,0.0,M,,*67</para>
  <para>$GPGSA,A,3,01,02,03,04,05,06,07,08,09,10,11,12,1.0,1.0,1.0*30</para>
  <para>$GPRMC,074144.773,A,3530.971,N,13125.897,E,039.1,042.6,050820,000.0,W*77</para>
  <para>$GPGGA,074145.773,3530.979,N,13125.905,E,1,12,1.0,0.0,M,0.0,M,,*64</para>
  <para>$GPGSA,A,3,01,02,03,04,05,06,07,08,09,10,11,12,1.0,1.0,1.0*30</para>
  <para>$GPRMC,074145.773,A,3530.979,N,13125.905,E,039.1,042.6,050820,000.0,W*74</para>
  <para>$GPGGA,074146.773,3530.988,N,13125.913,E,1,12,1.0,0.0,M,0.0,M,,*6E</para>
  <para>$GPGSA,A,3,01,02,03,04,05,06,07,08,09,10,11,12,1.0,1.0,1.0*30</para>
  <para>$GPRMC,074146.773,A,3530.988,N,13125.913,E,039.1,042.6,050820,000.0,W*7E</para>
  <para>$GPGGA,074147.773,3530.997,N,13125.921,E,1,12,1.0,0.0,M,0.0,M,,*60</para>
  <para>$GPGSA,A,3,01,02,03,04,05,06,07,08,09,10,11,12,1.0,1.0,1.0*30</para>
  <para>$GPRMC,074147.773,A,3530.997,N,13125.921,E,039.1,042.6,050820,000.0,W*70</para>
  <para>$GPGGA,074148.773,3531.005,N,13125.929,E,1,12,1.0,0.0,M,0.0,M,,*64</para>
  <para>$GPGSA,A,3,01,02,03,04,05,06,07,08,09,10,11,12,1.0,1.0,1.0*30</para>
  <para>$GPRMC,074148.773,A,3531.005,N,13125.929,E,039.1,042.6,050820,000.0,W*74</para>
  <para>$GPGGA,074149.773,3531.014,N,13125.937,E,1,12,1.0,0.0,M,0.0,M,,*6A</para>
  <para>$GPGSA,A,3,01,02,03,04,05,06,07,08,09,10,11,12,1.0,1.0,1.0*30</para>
  <para>$GPRMC,074149.773,A,3531.014,N,13125.937,E,039.1,042.6,050820,000.0,W*7A</para>
  <para>$GPGGA,074150.773,3531.023,N,13125.945,E,1,12,1.0,0.0,M,0.0,M,,*63</para>
  <para>$GPGSA,A,3,01,02,03,04,05,06,07,08,09,10,11,12,1.0,1.0,1.0*30</para>
  <para>$GPRMC,074150.773,A,3531.023,N,13125.945,E,039.1,042.6,050820,000.0,W*73</para>
  <para>$GPGGA,074151.773,3531.032,N,13125.953,E,1,12,1.0,0.0,M,0.0,M,,*65</para>
  <para>$GPGSA,A,3,01,02,03,04,05,06,07,08,09,10,11,12,1.0,1.0,1.0*30</para>
  <para>$GPRMC,074151.773,A,3531.032,N,13125.953,E,039.1,042.6,050820,000.0,W*75</para>
  <para>$GPGGA,074152.773,3531.040,N,13125.961,E,1,12,1.0,0.0,M,0.0,M,,*62</para>
  <para>$GPGSA,A,3,01,02,03,04,05,06,07,08,09,10,11,12,1.0,1.0,1.0*30</para>
  <para>$GPRMC,074152.773,A,3531.040,N,13125.961,E,039.1,042.6,050820,000.0,W*72</para>
  <para>$GPGGA,074153.773,3531.049,N,13125.969,E,1,12,1.0,0.0,M,0.0,M,,*62</para>
  <para>$GPGSA,A,3,01,02,03,04,05,06,07,08,09,10,11,12,1.0,1.0,1.0*30</para>
  <para>$GPRMC,074153.773,A,3531.049,N,13125.969,E,039.1,042.6,050820,000.0,W*72</para>
  <para>$GPGGA,074154.773,3531.058,N,13125.978,E,1,12,1.0,0.0,M,0.0,M,,*65</para>
  <para>$GPGSA,A,3,01,02,03,04,05,06,07,08,09,10,11,12,1.0,1.0,1.0*30</para>
  <para>$GPRMC,074154.773,A,3531.058,N,13125.978,E,039.1,042.6,050820,000.0,W*75</para>
  <para>$GPGGA,074155.773,3531.066,N,13125.986,E,1,12,1.0,0.0,M,0.0,M,,*68</para>
  <para>$GPGSA,A,3,01,02,03,04,05,06,07,08,09,10,11,12,1.0,1.0,1.0*30</para>
  <para>$GPRMC,074155.773,A,3531.066,N,13125.986,E,039.1,042.6,050820,000.0,W*78</para>
  <para>$GPGGA,074156.773,3531.075,N,13125.994,E,1,12,1.0,0.0,M,0.0,M,,*6A</para>
  <para>$GPGSA,A,3,01,02,03,04,05,06,07,08,09,10,11,12,1.0,1.0,1.0*30</para>
  <para>$GPRMC,074156.773,A,3531.075,N,13125.994,E,039.1,042.6,050820,000.0,W*7A</para>
  <para>$GPGGA,074157.773,3531.084,N,13126.002,E,1,12,1.0,0.0,M,0.0,M,,*60</para>
  <para>$GPGSA,A,3,01,02,03,04,05,06,07,08,09,10,11,12,1.0,1.0,1.0*30</para>
  <para>$GPRMC,074157.773,A,3531.084,N,13126.002,E,039.1,042.6,050820,000.0,W*70</para>
  <para>$GPGGA,074158.773,3531.092,N,13126.010,E,1,12,1.0,0.0,M,0.0,M,,*6B</para>
  <para>$GPGSA,A,3,01,02,03,04,05,06,07,08,09,10,11,12,1.0,1.0,1.0*30</para>
  <para>$GPRMC,074158.773,A,3531.092,N,13126.010,E,039.1,042.6,050820,000.0,W*7B</para>
  <para>$GPGGA,074159.773,3531.101,N,13126.018,E,1,12,1.0,0.0,M,0.0,M,,*69</para>
  <para>$GPGSA,A,3,01,02,03,04,05,06,07,08,09,10,11,12,1.0,1.0,1.0*30</para>
  <para>$GPRMC,074159.773,A,3531.101,N,13126.018,E,039.1,042.6,050820,000.0,W*79</para>
  <para>$GPGGA,074200.773,3531.110,N,13126.026,E,1,12,1.0,0.0,M,0.0,M,,*6B</para>
  <para>$GPGSA,A,3,01,02,03,04,05,06,07,08,09,10,11,12,1.0,1.0,1.0*30</para>
  <para>$GPRMC,074200.773,A,3531.110,N,13126.026,E,039.1,042.6,050820,000.0,W*7B</para>
  <para>$GPGGA,074201.773,3531.118,N,13126.034,E,1,12,1.0,0.0,M,0.0,M,,*61</para>
  <para>$GPGSA,A,3,01,02,03,04,05,06,07,08,09,10,11,12,1.0,1.0,1.0*30</para>
  <para>$GPRMC,074201.773,A,3531.118,N,13126.034,E,039.1,042.6,050820,000.0,W*71</para>
  <para>$GPGGA,074202.773,3531.127,N,13126.042,E,1,12,1.0,0.0,M,0.0,M,,*6F</para>
  <para>$GPGSA,A,3,01,02,03,04,05,06,07,08,09,10,11,12,1.0,1.0,1.0*30</para>
  <para>$GPRMC,074202.773,A,3531.127,N,13126.042,E,039.1,042.6,050820,000.0,W*7F</para>
  <para>$GPGGA,074203.773,3531.136,N,13126.050,E,1,12,1.0,0.0,M,0.0,M,,*6D</para>
  <para>$GPGSA,A,3,01,02,03,04,05,06,07,08,09,10,11,12,1.0,1.0,1.0*30</para>
  <para>$GPRMC,074203.773,A,3531.136,N,13126.050,E,039.1,042.6,050820,000.0,W*7D</para>
  <para>$GPGGA,074204.773,3531.144,N,13126.058,E,1,12,1.0,0.0,M,0.0,M,,*67</para>
  <para>$GPGSA,A,3,01,02,03,04,05,06,07,08,09,10,11,12,1.0,1.0,1.0*30</para>
  <para>$GPRMC,074204.773,A,3531.144,N,13126.058,E,039.1,042.6,050820,000.0,W*77</para>
  <para>$GPGGA,074205.773,3531.153,N,13126.066,E,1,12,1.0,0.0,M,0.0,M,,*6D</para>
  <para>$GPGSA,A,3,01,02,03,04,05,06,07,08,09,10,11,12,1.0,1.0,1.0*30</para>
  <para>$GPRMC,074205.773,A,3531.153,N,13126.066,E,039.1,042.6,050820,000.0,W*7D</para>
  <para>$GPGGA,074206.773,3531.162,N,13126.074,E,1,12,1.0,0.0,M,0.0,M,,*6F</para>
  <para>$GPGSA,A,3,01,02,03,04,05,06,07,08,09,10,11,12,1.0,1.0,1.0*30</para>
  <para>$GPRMC,074206.773,A,3531.162,N,13126.074,E,039.1,042.6,050820,000.0,W*7F</para>
  <para>$GPGGA,074207.773,3531.170,N,13126.082,E,1,12,1.0,0.0,M,0.0,M,,*64</para>
  <para>$GPGSA,A,3,01,02,03,04,05,06,07,08,09,10,11,12,1.0,1.0,1.0*30</para>
  <para>$GPRMC,074207.773,A,3531.170,N,13126.082,E,039.1,042.6,050820,000.0,W*74</para>
  <para>$GPGGA,074208.773,3531.179,N,13126.090,E,1,12,1.0,0.0,M,0.0,M,,*61</para>
  <para>$GPGSA,A,3,01,02,03,04,05,06,07,08,09,10,11,12,1.0,1.0,1.0*30</para>
  <para>$GPRMC,074208.773,A,3531.179,N,13126.090,E,039.1,042.6,050820,000.0,W*71</para>
  <para>$GPGGA,074209.773,3531.188,N,13126.098,E,1,12,1.0,0.0,M,0.0,M,,*66</para>
  <para>$GPGSA,A,3,01,02,03,04,05,06,07,08,09,10,11,12,1.0,1.0,1.0*30</para>
  <para>$GPRMC,074209.773,A,3531.188,N,13126.098,E,039.1,042.6,050820,000.0,W*76</para>
  <para>$GPGGA,074210.773,3531.197,N,13126.106,E,1,12,1.0,0.0,M,0.0,M,,*66</para>
  <para>$GPGSA,A,3,01,02,03,04,05,06,07,08,09,10,11,12,1.0,1.0,1.0*30</para>
  <para>$GPRMC,074210.773,A,3531.197,N,13126.106,E,039.1,042.6,050820,000.0,W*76</para>
  <para>$GPGGA,074211.773,3531.205,N,13126.114,E,1,12,1.0,0.0,M,0.0,M,,*6C</para>
  <para>$GPGSA,A,3,01,02,03,04,05,06,07,08,09,10,11,12,1.0,1.0,1.0*30</para>
  <para>$GPRMC,074211.773,A,3531.205,N,13126.114,E,039.1,042.6,050820,000.0,W*7C</para>
  <para>$GPGGA,074212.773,3531.214,N,13126.122,E,1,12,1.0,0.0,M,0.0,M,,*6A</para>
  <para>$GPGSA,A,3,01,02,03,04,05,06,07,08,09,10,11,12,1.0,1.0,1.0*30</para>
  <para>$GPRMC,074212.773,A,3531.214,N,13126.122,E,039.1,042.6,050820,000.0,W*7A</para>
  <para>$GPGGA,074213.773,3531.223,N,13126.130,E,1,12,1.0,0.0,M,0.0,M,,*6C</para>
  <para>$GPGSA,A,3,01,02,03,04,05,06,07,08,09,10,11,12,1.0,1.0,1.0*30</para>
  <para>$GPRMC,074213.773,A,3531.223,N,13126.130,E,039.1,042.6,050820,000.0,W*7C</para>
  <para>$GPGGA,074214.773,3531.231,N,13126.138,E,1,12,1.0,0.0,M,0.0,M,,*60</para>
  <para>$GPGSA,A,3,01,02,03,04,05,06,07,08,09,10,11,12,1.0,1.0,1.0*30</para>
  <para>$GPRMC,074214.773,A,3531.231,N,13126.138,E,039.1,042.6,050820,000.0,W*70</para>
  <para>$GPGGA,074215.773,3531.240,N,13126.146,E,1,12,1.0,0.0,M,0.0,M,,*6E</para>
  <para>$GPGSA,A,3,01,02,03,04,05,06,07,08,09,10,11,12,1.0,1.0,1.0*30</para>
  <para>$GPRMC,074215.773,A,3531.240,N,13126.146,E,039.1,042.6,050820,000.0,W*7E</para>
  <para>$GPGGA,074216.773,3531.249,N,13126.154,E,1,12,1.0,0.0,M,0.0,M,,*67</para>
  <para>$GPGSA,A,3,01,02,03,04,05,06,07,08,09,10,11,12,1.0,1.0,1.0*30</para>
  <para>$GPRMC,074216.773,A,3531.249,N,13126.154,E,039.1,042.6,050820,000.0,W*77</para>
  <para>$GPGGA,074217.773,3531.257,N,13126.162,E,1,12,1.0,0.0,M,0.0,M,,*6C</para>
  <para>$GPGSA,A,3,01,02,03,04,05,06,07,08,09,10,11,12,1.0,1.0,1.0*30</para>
  <para>$GPRMC,074217.773,A,3531.257,N,13126.162,E,039.1,042.6,050820,000.0,W*7C</para>
  <para>$GPGGA,074218.773,3531.266,N,13126.170,E,1,12,1.0,0.0,M,0.0,M,,*62</para>
  <para>$GPGSA,A,3,01,02,03,04,05,06,07,08,09,10,11,12,1.0,1.0,1.0*30</para>
  <para>$GPRMC,074218.773,A,3531.266,N,13126.170,E,039.1,042.6,050820,000.0,W*72</para>
  <para>$GPGGA,074219.773,3531.275,N,13126.178,E,1,12,1.0,0.0,M,0.0,M,,*69</para>
  <para>$GPGSA,A,3,01,02,03,04,05,06,07,08,09,10,11,12,1.0,1.0,1.0*30</para>
  <para>$GPRMC,074219.773,A,3531.275,N,13126.178,E,039.1,042.6,050820,000.0,W*79</para>
  <para>$GPGGA,074220.773,3531.283,N,13126.186,E,1,12,1.0,0.0,M,0.0,M,,*6B</para>
  <para>$GPGSA,A,3,01,02,03,04,05,06,07,08,09,10,11,12,1.0,1.0,1.0*30</para>
  <para>$GPRMC,074220.773,A,3531.283,N,13126.186,E,039.1,042.6,050820,000.0,W*7B</para>
  <para>$GPGGA,074221.773,3531.292,N,13126.194,E,1,12,1.0,0.0,M,0.0,M,,*69</para>
  <para>$GPGSA,A,3,01,02,03,04,05,06,07,08,09,10,11,12,1.0,1.0,1.0*30</para>
  <para>$GPRMC,074221.773,A,3531.292,N,13126.194,E,039.1,042.6,050820,000.0,W*79</para>
  <para>$GPGGA,074222.773,3531.301,N,13126.202,E,1,12,1.0,0.0,M,0.0,M,,*6D</para>
  <para>$GPGSA,A,3,01,02,03,04,05,06,07,08,09,10,11,12,1.0,1.0,1.0*30</para>
  <para>$GPRMC,074222.773,A,3531.301,N,13126.202,E,039.1,042.6,050820,000.0,W*7D</para>
  <para>$GPGGA,074223.773,3531.309,N,13126.210,E,1,12,1.0,0.0,M,0.0,M,,*67</para>
  <para>$GPGSA,A,3,01,02,03,04,05,06,07,08,09,10,11,12,1.0,1.0,1.0*30</para>
  <para>$GPRMC,074223.773,A,3531.309,N,13126.210,E,039.1,042.6,050820,000.0,W*77</para>
  <para>$GPGGA,074224.773,3531.318,N,13126.218,E,1,12,1.0,0.0,M,0.0,M,,*68</para>
  <para>$GPGSA,A,3,01,02,03,04,05,06,07,08,09,10,11,12,1.0,1.0,1.0*30</para>
  <para>$GPRMC,074224.773,A,3531.318,N,13126.218,E,039.1,042.6,050820,000.0,W*78</para>
  <para>$GPGGA,074225.773,3531.327,N,13126.226,E,1,12,1.0,0.0,M,0.0,M,,*68</para>
  <para>$GPGSA,A,3,01,02,03,04,05,06,07,08,09,10,11,12,1.0,1.0,1.0*30</para>
  <para>$GPRMC,074225.773,A,3531.327,N,13126.226,E,039.1,042.6,050820,000.0,W*78</para>
  <para>$GPGGA,074226.773,3531.335,N,13126.234,E,1,12,1.0,0.0,M,0.0,M,,*6B</para>
  <para>$GPGSA,A,3,01,02,03,04,05,06,07,08,09,10,11,12,1.0,1.0,1.0*30</para>
  <para>$GPRMC,074226.773,A,3531.335,N,13126.234,E,039.1,042.6,050820,000.0,W*7B</para>
  <para>$GPGGA,074227.773,3531.344,N,13126.242,E,1,12,1.0,0.0,M,0.0,M,,*6D</para>
  <para>$GPGSA,A,3,01,02,03,04,05,06,07,08,09,10,11,12,1.0,1.0,1.0*30</para>
  <para>$GPRMC,074227.773,A,3531.344,N,13126.242,E,039.1,042.6,050820,000.0,W*7D</para>
  <para>$GPGGA,074228.773,3531.353,N,13126.250,E,1,12,1.0,0.0,M,0.0,M,,*67</para>
  <para>$GPGSA,A,3,01,02,03,04,05,06,07,08,09,10,11,12,1.0,1.0,1.0*30</para>
  <para>$GPRMC,074228.773,A,3531.353,N,13126.250,E,039.1,042.6,050820,000.0,W*77</para>
  <para>$GPGGA,074229.773,3531.361,N,13126.258,E,1,12,1.0,0.0,M,0.0,M,,*6F</para>
  <para>$GPGSA,A,3,01,02,03,04,05,06,07,08,09,10,11,12,1.0,1.0,1.0*30</para>
  <para>$GPRMC,074229.773,A,3531.361,N,13126.258,E,039.1,042.6,050820,000.0,W*7F</para>
  <para>$GPGGA,074230.773,3531.370,N,13126.266,E,1,12,1.0,0.0,M,0.0,M,,*6A</para>
  <para>$GPGSA,A,3,01,02,03,04,05,06,07,08,09,10,11,12,1.0,1.0,1.0*30</para>
  <para>$GPRMC,074230.773,A,3531.370,N,13126.266,E,039.1,042.6,050820,000.0,W*7A</para>
  <para>$GPGGA,074231.773,3531.379,N,13126.274,E,1,12,1.0,0.0,M,0.0,M,,*61</para>
  <para>$GPGSA,A,3,01,02,03,04,05,06,07,08,09,10,11,12,1.0,1.0,1.0*30</para>
  <para>$GPRMC,074231.773,A,3531.379,N,13126.274,E,039.1,042.6,050820,000.0,W*71</para>
  <para>$GPGGA,074232.773,3531.388,N,13126.282,E,1,12,1.0,0.0,M,0.0,M,,*65</para>
  <para>$GPGSA,A,3,01,02,03,04,05,06,07,08,09,10,11,12,1.0,1.0,1.0*30</para>
  <para>$GPRMC,074232.773,A,3531.388,N,13126.282,E,039.1,042.6,050820,000.0,W*75</para>
  <para>$GPGGA,074233.773,3531.396,N,13126.290,E,1,12,1.0,0.0,M,0.0,M,,*68</para>
  <para>$GPGSA,A,3,01,02,03,04,05,06,07,08,09,10,11,12,1.0,1.0,1.0*30</para>
  <para>$GPRMC,074233.773,A,3531.396,N,13126.290,E,039.1,042.6,050820,000.0,W*78</para>
  <para>$GPGGA,074234.773,3531.405,N,13126.298,E,1,12,1.0,0.0,M,0.0,M,,*6A</para>
  <para>$GPGSA,A,3,01,02,03,04,05,06,07,08,09,10,11,12,1.0,1.0,1.0*30</para>
  <para>$GPRMC,074234.773,A,3531.405,N,13126.298,E,039.1,042.6,050820,000.0,W*7A</para>
  <para>$GPGGA,074235.773,3531.414,N,13126.306,E,1,12,1.0,0.0,M,0.0,M,,*6D</para>
  <para>$GPGSA,A,3,01,02,03,04,05,06,07,08,09,10,11,12,1.0,1.0,1.0*30</para>
  <para>$GPRMC,074235.773,A,3531.414,N,13126.306,E,039.1,042.6,050820,000.0,W*7D</para>
  <para>$GPGGA,074236.773,3531.422,N,13126.314,E,1,12,1.0,0.0,M,0.0,M,,*68</para>
  <para>$GPGSA,A,3,01,02,03,04,05,06,07,08,09,10,11,12,1.0,1.0,1.0*30</para>
  <para>$GPRMC,074236.773,A,3531.422,N,13126.314,E,039.1,042.6,050820,000.0,W*78</para>
  <para>$GPGGA,074237.773,3531.431,N,13126.322,E,1,12,1.0,0.0,M,0.0,M,,*6E</para>
  <para>$GPGSA,A,3,01,02,03,04,05,06,07,08,09,10,11,12,1.0,1.0,1.0*30</para>
  <para>$GPRMC,074237.773,A,3531.431,N,13126.322,E,039.1,042.6,050820,000.0,W*7E</para>
  <para>$GPGGA,074238.773,3531.440,N,13126.330,E,1,12,1.0,0.0,M,0.0,M,,*64</para>
  <para>$GPGSA,A,3,01,02,03,04,05,06,07,08,09,10,11,12,1.0,1.0,1.0*30</para>
  <para>$GPRMC,074238.773,A,3531.440,N,13126.330,E,039.1,042.6,050820,000.0,W*74</para>
  <para>$GPGGA,074239.773,3531.448,N,13126.338,E,1,12,1.0,0.0,M,0.0,M,,*65</para>
  <para>$GPGSA,A,3,01,02,03,04,05,06,07,08,09,10,11,12,1.0,1.0,1.0*30</para>
  <para>$GPRMC,074239.773,A,3531.448,N,13126.338,E,039.1,042.6,050820,000.0,W*75</para>
  <para>$GPGGA,074240.773,3531.457,N,13126.346,E,1,12,1.0,0.0,M,0.0,M,,*6C</para>
  <para>$GPGSA,A,3,01,02,03,04,05,06,07,08,09,10,11,12,1.0,1.0,1.0*30</para>
  <para>$GPRMC,074240.773,A,3531.457,N,13126.346,E,039.1,042.6,050820,000.0,W*7C</para>
  <para>$GPGGA,074241.773,3531.466,N,13126.354,E,1,12,1.0,0.0,M,0.0,M,,*6C</para>
  <para>$GPGSA,A,3,01,02,03,04,05,06,07,08,09,10,11,12,1.0,1.0,1.0*30</para>
  <para>$GPRMC,074241.773,A,3531.466,N,13126.354,E,039.1,042.6,050820,000.0,W*7C</para>
  <para>$GPGGA,074242.773,3531.474,N,13126.362,E,1,12,1.0,0.0,M,0.0,M,,*69</para>
  <para>$GPGSA,A,3,01,02,03,04,05,06,07,08,09,10,11,12,1.0,1.0,1.0*30</para>
  <para>$GPRMC,074242.773,A,3531.474,N,13126.362,E,039.1,042.6,050820,000.0,W*79</para>
  <para>$GPGGA,074243.773,3531.483,N,13126.370,E,1,12,1.0,0.0,M,0.0,M,,*63</para>
  <para>$GPGSA,A,3,01,02,03,04,05,06,07,08,09,10,11,12,1.0,1.0,1.0*30</para>
  <para>$GPRMC,074243.773,A,3531.483,N,13126.370,E,039.1,042.6,050820,000.0,W*73</para>
  <para>$GPGGA,074244.773,3531.492,N,13126.378,E,1,12,1.0,0.0,M,0.0,M,,*6C</para>
  <para>$GPGSA,A,3,01,02,03,04,05,06,07,08,09,10,11,12,1.0,1.0,1.0*30</para>
  <para>$GPRMC,074244.773,A,3531.492,N,13126.378,E,039.1,042.6,050820,000.0,W*7C</para>
  <para>$GPGGA,074245.773,3531.500,N,13126.386,E,1,12,1.0,0.0,M,0.0,M,,*66</para>
  <para>$GPGSA,A,3,01,02,03,04,05,06,07,08,09,10,11,12,1.0,1.0,1.0*30</para>
  <para>$GPRMC,074245.773,A,3531.500,N,13126.386,E,039.1,042.6,050820,000.0,W*76</para>
  <para>$GPGGA,074246.773,3531.509,N,13126.394,E,1,12,1.0,0.0,M,0.0,M,,*6F</para>
  <para>$GPGSA,A,3,01,02,03,04,05,06,07,08,09,10,11,12,1.0,1.0,1.0*30</para>
  <para>$GPRMC,074246.773,A,3531.509,N,13126.394,E,039.1,042.6,050820,000.0,W*7F</para>
  <para>$GPGGA,074247.773,3531.518,N,13126.402,E,1,12,1.0,0.0,M,0.0,M,,*66</para>
  <para>$GPGSA,A,3,01,02,03,04,05,06,07,08,09,10,11,12,1.0,1.0,1.0*30</para>
  <para>$GPRMC,074247.773,A,3531.518,N,13126.402,E,039.1,042.6,050820,000.0,W*76</para>
  <para>$GPGGA,074248.773,3531.526,N,13126.410,E,1,12,1.0,0.0,M,0.0,M,,*67</para>
  <para>$GPGSA,A,3,01,02,03,04,05,06,07,08,09,10,11,12,1.0,1.0,1.0*30</para>
  <para>$GPRMC,074248.773,A,3531.526,N,13126.410,E,039.1,042.6,050820,000.0,W*77</para>
  <para>$GPGGA,074249.773,3531.535,N,13126.418,E,1,12,1.0,0.0,M,0.0,M,,*6C</para>
  <para>$GPGSA,A,3,01,02,03,04,05,06,07,08,09,10,11,12,1.0,1.0,1.0*30</para>
  <para>$GPRMC,074249.773,A,3531.535,N,13126.418,E,039.1,042.6,050820,000.0,W*7C</para>
  <para>$GPGGA,074250.773,3531.544,N,13126.426,E,1,12,1.0,0.0,M,0.0,M,,*6F</para>
  <para>$GPGSA,A,3,01,02,03,04,05,06,07,08,09,10,11,12,1.0,1.0,1.0*30</para>
  <para>$GPRMC,074250.773,A,3531.544,N,13126.426,E,039.1,042.6,050820,000.0,W*7F</para>
  <para>$GPGGA,074251.773,3531.552,N,13126.434,E,1,12,1.0,0.0,M,0.0,M,,*6A</para>
  <para>$GPGSA,A,3,01,02,03,04,05,06,07,08,09,10,11,12,1.0,1.0,1.0*30</para>
  <para>$GPRMC,074251.773,A,3531.552,N,13126.434,E,039.1,042.6,050820,000.0,W*7A</para>
  <para>$GPGGA,074252.773,3531.561,N,13126.442,E,1,12,1.0,0.0,M,0.0,M,,*68</para>
  <para>$GPGSA,A,3,01,02,03,04,05,06,07,08,09,10,11,12,1.0,1.0,1.0*30</para>
  <para>$GPRMC,074252.773,A,3531.561,N,13126.442,E,039.1,042.6,050820,000.0,W*78</para>
  <para>$GPGGA,074253.773,3531.570,N,13126.450,E,1,12,1.0,0.0,M,0.0,M,,*6A</para>
  <para>$GPGSA,A,3,01,02,03,04,05,06,07,08,09,10,11,12,1.0,1.0,1.0*30</para>
  <para>$GPRMC,074253.773,A,3531.570,N,13126.450,E,039.1,042.6,050820,000.0,W*7A</para>
  <para>$GPGGA,074254.773,3531.579,N,13126.458,E,1,12,1.0,0.0,M,0.0,M,,*6C</para>
  <para>$GPGSA,A,3,01,02,03,04,05,06,07,08,09,10,11,12,1.0,1.0,1.0*30</para>
  <para>$GPRMC,074254.773,A,3531.579,N,13126.458,E,039.1,042.6,050820,000.0,W*7C</para>
  <para>$GPGGA,074255.773,3531.587,N,13126.466,E,1,12,1.0,0.0,M,0.0,M,,*61</para>
  <para>$GPGSA,A,3,01,02,03,04,05,06,07,08,09,10,11,12,1.0,1.0,1.0*30</para>
  <para>$GPRMC,074255.773,A,3531.587,N,13126.466,E,039.1,042.6,050820,000.0,W*71</para>
  <para>$GPGGA,074256.773,3531.596,N,13126.474,E,1,12,1.0,0.0,M,0.0,M,,*61</para>
  <para>$GPGSA,A,3,01,02,03,04,05,06,07,08,09,10,11,12,1.0,1.0,1.0*30</para>
  <para>$GPRMC,074256.773,A,3531.596,N,13126.474,E,039.1,042.6,050820,000.0,W*71</para>
  <para>$GPGGA,074257.773,3531.605,N,13126.482,E,1,12,1.0,0.0,M,0.0,M,,*60</para>
  <para>$GPGSA,A,3,01,02,03,04,05,06,07,08,09,10,11,12,1.0,1.0,1.0*30</para>
  <para>$GPRMC,074257.773,A,3531.605,N,13126.482,E,039.1,042.6,050820,000.0,W*70</para>
  <para>$GPGGA,074258.773,3531.613,N,13126.490,E,1,12,1.0,0.0,M,0.0,M,,*6B</para>
  <para>$GPGSA,A,3,01,02,03,04,05,06,07,08,09,10,11,12,1.0,1.0,1.0*30</para>
  <para>$GPRMC,074258.773,A,3531.613,N,13126.490,E,039.1,042.6,050820,000.0,W*7B</para>
  <para>$GPGGA,074259.773,3531.622,N,13126.498,E,1,12,1.0,0.0,M,0.0,M,,*60</para>
  <para>$GPGSA,A,3,01,02,03,04,05,06,07,08,09,10,11,12,1.0,1.0,1.0*30</para>
  <para>$GPRMC,074259.773,A,3531.622,N,13126.498,E,039.1,042.6,050820,000.0,W*70</para>
  <para>$GPGGA,074300.773,3531.631,N,13126.506,E,1,12,1.0,0.0,M,0.0,M,,*69</para>
  <para>$GPGSA,A,3,01,02,03,04,05,06,07,08,09,10,11,12,1.0,1.0,1.0*30</para>
  <para>$GPRMC,074300.773,A,3531.631,N,13126.506,E,039.1,042.6,050820,000.0,W*79</para>
  <para>$GPGGA,074301.773,3531.639,N,13126.514,E,1,12,1.0,0.0,M,0.0,M,,*63</para>
  <para>$GPGSA,A,3,01,02,03,04,05,06,07,08,09,10,11,12,1.0,1.0,1.0*30</para>
  <para>$GPRMC,074301.773,A,3531.639,N,13126.514,E,039.1,042.6,050820,000.0,W*73</para>
  <para>$GPGGA,074302.773,3531.648,N,13126.522,E,1,12,1.0,0.0,M,0.0,M,,*63</para>
  <para>$GPGSA,A,3,01,02,03,04,05,06,07,08,09,10,11,12,1.0,1.0,1.0*30</para>
  <para>$GPRMC,074302.773,A,3531.648,N,13126.522,E,039.1,042.6,050820,000.0,W*73</para>
  <para>$GPGGA,074303.773,3531.657,N,13126.530,E,1,12,1.0,0.0,M,0.0,M,,*6F</para>
  <para>$GPGSA,A,3,01,02,03,04,05,06,07,08,09,10,11,12,1.0,1.0,1.0*30</para>
  <para>$GPRMC,074303.773,A,3531.657,N,13126.530,E,039.1,042.6,050820,000.0,W*7F</para>
  <para>$GPGGA,074304.773,3531.665,N,13126.538,E,1,12,1.0,0.0,M,0.0,M,,*61</para>
  <para>$GPGSA,A,3,01,02,03,04,05,06,07,08,09,10,11,12,1.0,1.0,1.0*30</para>
  <para>$GPRMC,074304.773,A,3531.665,N,13126.538,E,039.1,042.6,050820,000.0,W*71</para>
  <para>$GPGGA,074305.773,3531.674,N,13126.546,E,1,12,1.0,0.0,M,0.0,M,,*69</para>
  <para>$GPGSA,A,3,01,02,03,04,05,06,07,08,09,10,11,12,1.0,1.0,1.0*30</para>
  <para>$GPRMC,074305.773,A,3531.674,N,13126.546,E,039.1,042.6,050820,000.0,W*79</para>
  <para>$GPGGA,074306.773,3531.683,N,13126.554,E,1,12,1.0,0.0,M,0.0,M,,*61</para>
  <para>$GPGSA,A,3,01,02,03,04,05,06,07,08,09,10,11,12,1.0,1.0,1.0*30</para>
  <para>$GPRMC,074306.773,A,3531.683,N,13126.554,E,039.1,042.6,050820,000.0,W*71</para>
  <para>$GPGGA,074307.773,3531.691,N,13126.562,E,1,12,1.0,0.0,M,0.0,M,,*66</para>
  <para>$GPGSA,A,3,01,02,03,04,05,06,07,08,09,10,11,12,1.0,1.0,1.0*30</para>
  <para>$GPRMC,074307.773,A,3531.691,N,13126.562,E,039.1,042.6,050820,000.0,W*76</para>
  <para>$GPGGA,074308.773,3531.700,N,13126.570,E,1,12,1.0,0.0,M,0.0,M,,*63</para>
  <para>$GPGSA,A,3,01,02,03,04,05,06,07,08,09,10,11,12,1.0,1.0,1.0*30</para>
  <para>$GPRMC,074308.773,A,3531.700,N,13126.570,E,039.1,042.6,050820,000.0,W*73</para>
  <para>$GPGGA,074309.773,3531.709,N,13126.579,E,1,12,1.0,0.0,M,0.0,M,,*62</para>
  <para>$GPGSA,A,3,01,02,03,04,05,06,07,08,09,10,11,12,1.0,1.0,1.0*30</para>
  <para>$GPRMC,074309.773,A,3531.709,N,13126.579,E,039.1,042.6,050820,000.0,W*72</para>
  <para>$GPGGA,074310.773,3531.717,N,13126.587,E,1,12,1.0,0.0,M,0.0,M,,*64</para>
  <para>$GPGSA,A,3,01,02,03,04,05,06,07,08,09,10,11,12,1.0,1.0,1.0*30</para>
  <para>$GPRMC,074310.773,A,3531.717,N,13126.587,E,039.1,042.6,050820,000.0,W*74</para>
  <para>$GPGGA,074311.773,3531.726,N,13126.595,E,1,12,1.0,0.0,M,0.0,M,,*64</para>
  <para>$GPGSA,A,3,01,02,03,04,05,06,07,08,09,10,11,12,1.0,1.0,1.0*30</para>
  <para>$GPRMC,074311.773,A,3531.726,N,13126.595,E,039.1,042.6,050820,000.0,W*74</para>
  <para>$GPGGA,074312.773,3531.735,N,13126.603,E,1,12,1.0,0.0,M,0.0,M,,*69</para>
  <para>$GPGSA,A,3,01,02,03,04,05,06,07,08,09,10,11,12,1.0,1.0,1.0*30</para>
  <para>$GPRMC,074312.773,A,3531.735,N,13126.603,E,039.1,042.6,050820,000.0,W*79</para>
  <para>$GPGGA,074313.773,3531.743,N,13126.611,E,1,12,1.0,0.0,M,0.0,M,,*6A</para>
  <para>$GPGSA,A,3,01,02,03,04,05,06,07,08,09,10,11,12,1.0,1.0,1.0*30</para>
  <para>$GPRMC,074313.773,A,3531.743,N,13126.611,E,039.1,042.6,050820,000.0,W*7A</para>
  <para>$GPGGA,074314.773,3531.752,N,13126.619,E,1,12,1.0,0.0,M,0.0,M,,*65</para>
  <para>$GPGSA,A,3,01,02,03,04,05,06,07,08,09,10,11,12,1.0,1.0,1.0*30</para>
  <para>$GPRMC,074314.773,A,3531.752,N,13126.619,E,039.1,042.6,050820,000.0,W*75</para>
  <para>$GPGGA,074315.773,3531.761,N,13126.627,E,1,12,1.0,0.0,M,0.0,M,,*69</para>
  <para>$GPGSA,A,3,01,02,03,04,05,06,07,08,09,10,11,12,1.0,1.0,1.0*30</para>
  <para>$GPRMC,074315.773,A,3531.761,N,13126.627,E,039.1,042.6,050820,000.0,W*79</para>
  <para>$GPGGA,074316.773,3531.770,N,13126.635,E,1,12,1.0,0.0,M,0.0,M,,*69</para>
  <para>$GPGSA,A,3,01,02,03,04,05,06,07,08,09,10,11,12,1.0,1.0,1.0*30</para>
  <para>$GPRMC,074316.773,A,3531.770,N,13126.635,E,039.1,042.6,050820,000.0,W*79</para>
  <para>$GPGGA,074317.773,3531.778,N,13126.643,E,1,12,1.0,0.0,M,0.0,M,,*61</para>
  <para>$GPGSA,A,3,01,02,03,04,05,06,07,08,09,10,11,12,1.0,1.0,1.0*30</para>
  <para>$GPRMC,074317.773,A,3531.778,N,13126.643,E,039.1,042.6,050820,000.0,W*71</para>
  <para>$GPGGA,074318.773,3531.787,N,13126.651,E,1,12,1.0,0.0,M,0.0,M,,*6D</para>
  <para>$GPGSA,A,3,01,02,03,04,05,06,07,08,09,10,11,12,1.0,1.0,1.0*30</para>
  <para>$GPRMC,074318.773,A,3531.787,N,13126.651,E,039.1,042.6,050820,000.0,W*7D</para>
  <para>$GPGGA,074319.773,3531.796,N,13126.659,E,1,12,1.0,0.0,M,0.0,M,,*64</para>
  <para>$GPGSA,A,3,01,02,03,04,05,06,07,08,09,10,11,12,1.0,1.0,1.0*30</para>
  <para>$GPRMC,074319.773,A,3531.796,N,13126.659,E,039.1,042.6,050820,000.0,W*74</para>
  <para>$GPGGA,074320.773,3531.804,N,13126.667,E,1,12,1.0,0.0,M,0.0,M,,*67</para>
  <para>$GPGSA,A,3,01,02,03,04,05,06,07,08,09,10,11,12,1.0,1.0,1.0*30</para>
  <para>$GPRMC,074320.773,A,3531.804,N,13126.667,E,039.1,042.6,050820,000.0,W*77</para>
  <para>$GPGGA,074321.773,3531.813,N,13126.675,E,1,12,1.0,0.0,M,0.0,M,,*63</para>
  <para>$GPGSA,A,3,01,02,03,04,05,06,07,08,09,10,11,12,1.0,1.0,1.0*30</para>
  <para>$GPRMC,074321.773,A,3531.813,N,13126.675,E,039.1,042.6,050820,000.0,W*73</para>
  <para>$GPGGA,074322.773,3531.822,N,13126.683,E,1,12,1.0,0.0,M,0.0,M,,*6B</para>
  <para>$GPGSA,A,3,01,02,03,04,05,06,07,08,09,10,11,12,1.0,1.0,1.0*30</para>
  <para>$GPRMC,074322.773,A,3531.822,N,13126.683,E,039.1,042.6,050820,000.0,W*7B</para>
  <para>$GPGGA,074323.773,3531.830,N,13126.691,E,1,12,1.0,0.0,M,0.0,M,,*6A</para>
  <para>$GPGSA,A,3,01,02,03,04,05,06,07,08,09,10,11,12,1.0,1.0,1.0*30</para>
  <para>$GPRMC,074323.773,A,3531.830,N,13126.691,E,039.1,042.6,050820,000.0,W*7A</para>
  <para>$GPGGA,074324.773,3531.839,N,13126.699,E,1,12,1.0,0.0,M,0.0,M,,*6C</para>
  <para>$GPGSA,A,3,01,02,03,04,05,06,07,08,09,10,11,12,1.0,1.0,1.0*30</para>
  <para>$GPRMC,074324.773,A,3531.839,N,13126.699,E,039.1,042.6,050820,000.0,W*7C</para>
  <para>$GPGGA,074325.773,3531.848,N,13126.707,E,1,12,1.0,0.0,M,0.0,M,,*6D</para>
  <para>$GPGSA,A,3,01,02,03,04,05,06,07,08,09,10,11,12,1.0,1.0,1.0*30</para>
  <para>$GPRMC,074325.773,A,3531.848,N,13126.707,E,039.1,042.6,050820,000.0,W*7D</para>
  <para>$GPGGA,074326.773,3531.856,N,13126.715,E,1,12,1.0,0.0,M,0.0,M,,*62</para>
  <para>$GPGSA,A,3,01,02,03,04,05,06,07,08,09,10,11,12,1.0,1.0,1.0*30</para>
  <para>$GPRMC,074326.773,A,3531.856,N,13126.715,E,039.1,042.6,050820,000.0,W*72</para>
  <para>$GPGGA,074327.773,3531.865,N,13126.723,E,1,12,1.0,0.0,M,0.0,M,,*66</para>
  <para>$GPGSA,A,3,01,02,03,04,05,06,07,08,09,10,11,12,1.0,1.0,1.0*30</para>
  <para>$GPRMC,074327.773,A,3531.865,N,13126.723,E,039.1,042.6,050820,000.0,W*76</para>
  <para>$GPGGA,074328.773,3531.874,N,13126.731,E,1,12,1.0,0.0,M,0.0,M,,*6A</para>
  <para>$GPGSA,A,3,01,02,03,04,05,06,07,08,09,10,11,12,1.0,1.0,1.0*30</para>
  <para>$GPRMC,074328.773,A,3531.874,N,13126.731,E,039.1,042.6,050820,000.0,W*7A</para>
  <para>$GPGGA,074329.773,3531.882,N,13126.739,E,1,12,1.0,0.0,M,0.0,M,,*6A</para>
  <para>$GPGSA,A,3,01,02,03,04,05,06,07,08,09,10,11,12,1.0,1.0,1.0*30</para>
  <para>$GPRMC,074329.773,A,3531.882,N,13126.739,E,039.1,042.6,050820,000.0,W*7A</para>
  <para>$GPGGA,074330.773,3531.891,N,13126.747,E,1,12,1.0,0.0,M,0.0,M,,*69</para>
  <para>$GPGSA,A,3,01,02,03,04,05,06,07,08,09,10,11,12,1.0,1.0,1.0*30</para>
  <para>$GPRMC,074330.773,A,3531.891,N,13126.747,E,039.1,042.6,050820,000.0,W*79</para>
  <para>$GPGGA,074331.773,3531.900,N,13126.755,E,1,12,1.0,0.0,M,0.0,M,,*62</para>
  <para>$GPGSA,A,3,01,02,03,04,05,06,07,08,09,10,11,12,1.0,1.0,1.0*30</para>
  <para>$GPRMC,074331.773,A,3531.900,N,13126.755,E,039.1,042.6,050820,000.0,W*72</para>
  <para>$GPGGA,074332.773,3531.908,N,13126.763,E,1,12,1.0,0.0,M,0.0,M,,*6C</para>
  <para>$GPGSA,A,3,01,02,03,04,05,06,07,08,09,10,11,12,1.0,1.0,1.0*30</para>
  <para>$GPRMC,074332.773,A,3531.908,N,13126.763,E,039.1,042.6,050820,000.0,W*7C</para>
  <para>$GPGGA,074333.773,3531.917,N,13126.771,E,1,12,1.0,0.0,M,0.0,M,,*60</para>
  <para>$GPGSA,A,3,01,02,03,04,05,06,07,08,09,10,11,12,1.0,1.0,1.0*30</para>
  <para>$GPRMC,074333.773,A,3531.917,N,13126.771,E,039.1,042.6,050820,000.0,W*70</para>
  <para>$GPGGA,074334.773,3531.926,N,13126.779,E,1,12,1.0,0.0,M,0.0,M,,*6D</para>
  <para>$GPGSA,A,3,01,02,03,04,05,06,07,08,09,10,11,12,1.0,1.0,1.0*30</para>
  <para>$GPRMC,074334.773,A,3531.926,N,13126.779,E,039.1,042.6,050820,000.0,W*7D</para>
  <para>$GPGGA,074335.773,3531.934,N,13126.787,E,1,12,1.0,0.0,M,0.0,M,,*6E</para>
